[
  {
    "label": "Portland",
    "slug": "portland",
    "loc": { "lat": 45.524176, "lng": -122.682122 },
    "email": "portland@serverlessdays.io",
    "website": "https://pdx.serverlessdays.io",
    "date": "17 September 2018"
  },
  {
    "label": "Toronto",
    "slug": "toronto",
    "loc": { "lat": 43.643485, "lng": -79.380961 },
    "email": "toronto@serverlessdays.io",
    "website": "https://functions.events",
    "date": "28 September 2018"
  },
  {
    "label": "Seattle",
    "slug": "seattle",
    "loc": { "lat": 47.624567, "lng": -122.350416 },
    "email": "seattle@serverlessdays.io",
    "date": "4 October 2018",
    "website": "https://seattle.serverlessdays.io"
  },
  {
    "label": "Jaipur",
    "slug": "jaipur",
    "loc": { "lat": 26.9126, "lng": 75.7905 },
    "date": "17 February 2019",
    "email": "jaipur@serverlessdays.io",
    "website": "https://jaipur.serverlessdays.io"
  },
  {
    "label": "Austin",
    "slug": "austin",
    "loc": { "lat": 30.256445, "lng": -97.763543 },
    "email": "austin@serverlessdays.io",
    "website": "https://atx.serverlessdays.io",
    "date": "22 February 2019"
  },
  {
    "label": "Atlanta",
    "slug": "atlanta",
    "loc": { "lat": 33.7493, "lng": -84.3855 },
    "email": "atlanta@serverlessdays.io",
    "website": "https://atlanta.serverlessdays.io",
    "date": "9 April 2019"
  },
  {
    "label": "Tel Aviv",
    "slug": "tel-aviv",
    "loc": { "lat": 32.071751, "lng": 34.789118 },
    "website": "https://tlv.serverlessdays.io",
    "date": "4 June 2019",
    "email": "tlv@serverlessdays.io"
  },
  {
    "label": "London",
    "slug": "london",
    "loc": { "lat": 51.5127, "lng": -0.0906 },
    "website": "https://london.serverlessdays.io",
    "date": "11 July 2019",
    "email": "london@serverlessdays.io"
  },
  {
    "label": "Sydney",
    "slug": "sydney",
    "loc": { "lat": -33.8787, "lng": 151.2138 },
    "website": "https://sydney.serverlessdays.io",
    "date": "27 August 2019",
    "email": "sydney@serverlessdays.io"
  },
  {
    "label": "Melbourne",
    "slug": "melbourne",
    "loc": { "lat": -37.8033, "lng": 144.9717 },
    "email": "melbourne@serverlessdays.io",
    "website": "https://www.serverlessdays.me",
    "date": "29 August 2019"
  },
  {
    "label": "Belgrade",
    "slug": "belgrade",
    "loc": { "lat": 44.81892, "lng": 20.45998 },
    "email": "belgrade@serverlessdays.io",
    "website": "https://serverlessbelgrade.com",
    "date": "13 September 2019"
  },
  {
    "label": "İstanbul",
    "slug": "istanbul",
    "loc": { "lat": 41.024891, "lng": 28.956651 },
    "date": "03 October 2019",
    "email": "istanbul@serverlessdays.io",
    "website": "http://istanbul.serverlessdays.io"
  },
  {
    "label": "Tokyo",
    "slug": "tokyo",
    "loc": { "lat": 35.6762, "lng": 139.6503 },
    "email": "japan@serverlessdays.io",
    "website": "https://tokyo.serverlessdays.io",
    "date": "22 October 2019"
  },
  {
    "label": "Fukuoka",
    "slug": "fukuoka",
    "loc": { "lat": 33.5902, "lng": 130.4017 },
    "date": "14 December 2019",
    "email": "japan@serverlessdays.io",
    "website": "https://fukuoka.serverlessdays.io"
  },
  {
    "label": "Los Angeles",
    "slug": "los-angeles",
    "loc": { "lat": 34.0919, "lng": -118.3378 },
    "email": "losangeles@serverlessdays.io"
  },
  {
    "label": "Dublin",
    "slug": "dublin",
    "loc": { "lat": 53.3498, "lng": -6.2603 },
    "email": "dublin@serverlessdays.io"
  },
  {
    "label": "San Francisco",
    "slug": "san-francisco",
    "loc": { "lat": 37.7749, "lng": -122.4194 },
    "email": "sanfrancisco@serverlessdays.io"
  },
  {
    "label": "Hong Kong",
    "slug": "hong-kong",
    "loc": { "lat": 22.3239, "lng": 114.1722 },
    "email": "hongkong@serverlessdays.io"
  },
  {
    "label": "Singapore",
    "slug": "singapore",
    "loc": { "lat": 1.3517, "lng": 103.8682 },
    "email": "singapore@serverlessdays.io"
  },
  {
    "label": "Berlin",
    "slug": "berlin",
    "loc": { "lat": 52.5177, "lng": 13.3986 },
    "email": "berlin@serverlessdays.io"
  },
  {
    "label": "Charlotte",
    "slug": "charlotte",
    "loc": { "lat": 35.2264, "lng": -80.841 },
    "email": "charlotte@serverlessdays.io"
  },
  {
    "label": "Chicago",
    "slug": "chicago",
    "loc": { "lat": 41.8766, "lng": -87.6317 },
    "email": "chicago@serverlessdays.io"
  },
  {
    "label": "Vancouver",
    "slug": "vancouver",
    "loc": { "lat": 49.2668, "lng": -123.117 },
    "email": "vancouver@serverlessdays.io"
  },
  {
    "label": "Bogotá",
    "slug": "bogota",
    "loc": { "lat": 4.6083, "lng": -74.0837 },
    "email": "bogota@serverlessdays.io"
  },
  {
    "label": "Santiago",
    "slug": "santiago",
    "loc": { "lat": -33.4592, "lng": -70.6477 },
    "email": "santiago@serverlessdays.io"
  },
  {
    "label": "Lviv",
    "slug": "lviv",
    "loc": { "lat": 49.8353, "lng": 24.0264 },
    "email": "lviv@serverlessdays.io"
  },
  {
    "label": "Denver",
    "slug": "denver",
    "loc": { "lat": 39.7249, "lng": -104.9732 },
    "email": "denver@serverlessdays.io"
  },
  {
    "label": "Seoul",
    "slug": "seoul",
    "loc": { "lat": 37.5406, "lng": 126.9906 },
    "email": "seoul@serverlessdays.io"
  },
  {
    "label": "Madrid",
    "slug": "madrid",
    "loc": { "lat": 40.4156, "lng": -3.7063 },
    "email": "madrid@serverlessdays.io"
  },
  {
    "label": "Sydney",
    "slug": "sydney",
    "loc": { "lat": -33.8779331, "lng": 151.2082085 },
    "email": "sydney@serverlessdays.io",
    "date": "18 August 2020",
    "website": "https://sydney.serverlessdays.io"
  },
  {
    "label": "Warsaw",
    "slug": "warsaw",
    "loc": { "lat": 52.2315, "lng": 21.0062 },
    "date": "3 September 2020",
    "website": "https://warsaw.serverlessdays.io",
    "email": "warsaw@serverlessdays.io"
  },
  {
    "label": "(Virtual)",
    "slug": "virtual",
    "email": "virtual@serverlessdays.io",
    "date": "28 October 2020",
    "website": "https://virtual.serverlessdays.io"
  },
  {
    "label": "Stockholm",
    "slug": "stockholm",
    "loc": { "lat": 59.3293, "lng": 18.0686 },
    "email": "stockholm@serverlessdays.io",
    "website": "https://stockholm.serverlessdays.io",
    "date": "25 November 2020"
  },
  {
    "label": "Ahmedabad",
    "slug": "ahmedabad",
    "loc": { "lat": 23.0202434, "lng": 72.5797426 },
    "email": "ahmedabad@serverlessdays.io",
    "date": "5 December 2020",
    "website": "https://ahmedabad.serverlessdays.io"
  },
  {
    "label": "Nashville",
    "slug": "nashville",
    "loc": { "lat": 36.1627, "lng": -86.7816 },
    "email": "nashville@serverlessdays.io",
    "website": "https://serverlessnashville.io",
    "date": "14 September 2021"
  },
  {
    "label": "Hamburg",
    "slug": "hamburg",
    "loc": { "lat": 53.5511, "lng": 9.9937 },
    "date": "17 September 2021",
    "website": "https://hamburg.serverlessdays.io",
    "email": "hamburg@serverlessdays.io"
  },
  {
    "label": "New York",
    "slug": "new-york",
    "loc": { "lat": 40.7128, "lng": -74.006 },
    "email": "newyork@serverlessdays.io",
    "website": "http://newyork.serverlessdays.io",
    "date": "24 June 2022"
  },
  {
    "label": "(Student Edition)",
    "slug": "student",
    "loc": { "lat": 37.7749, "lng": 122.4194 },
    "email": "student@serverlessdays.io",
    "website": "https://student.serverlessdays.io",
    "date": "21 August 2022"
  },
  {
    "label": "Auckland, NZ",
    "slug": "anz",
    "loc": { "lat": -37.8179789, "lng": 144.9649377 },
    "date": "10 March 2023",
    "website": "https://anz.serverlessdays.io",
    "email": "anz@serverlessdays.io"
  },
  {
    "label": "Paris",
    "slug": "paris",
    "loc": { "lat": 48.864716, "lng": 2.349014 },
    "date": "7 June 2023",
    "website": "https://paris.serverlessdays.io",
    "email": "paris@serverlessdays.io"
  },
  {
    "label": "Zürich",
    "slug": "zurich",
    "loc": { "lat": 47.3766, "lng": 8.5332 },
    "email": "zurich@serverlessdays.io",
    "date": "22 June 2023",
    "website": "https://zurich.serverlessdays.io"
  },
  {
    "label": "Bengaluru",
    "slug": "bengaluru",
    "loc": { "lat": 12.979123843143926, "lng": 77.71550572447656 },
    "date": "02 September 2023",
    "website": "https://blr.serverlessdays.io/",
    "email": "blr@serverlessdays.io"
  },
  {
    "label": "Ahmedabad",
    "slug": "ahmedabad",
    "loc": { "lat": 23.022505, "lng": 72.571365 },
    "date": "09 September 2023",
    "website": "https://ahmedabad.serverlessdays.io/",
    "email": "ahmedabad@serverlessdays.io"
  },
  {
    "label": "Cardiff",
    "slug": "cardiff",
    "loc": { "lat": 51.4824, "lng": -3.1746 },
    "date": "21 September 2023",
    "website": "https://cardiff.serverlessdays.io",
    "email": "cardiff@serverlessdays.io"
  },
  {
    "label": "Cape Town",
    "slug": "capetown",
    "loc": { "lat": -33.9249, "lng": 18.4241 },
    "date": "20 October 2023",
    "website": "https://capetown.serverlessdays.io",
    "email": "capetown@serverlessdays.io"
  },
  {
    "label": "Sydney",
    "slug": "sydney",
    "loc": { "lat": -33.8717, "lng": 151.2084 },
    "date": "21 May 2024",
    "website": "https://anz.serverlessdays.io",
    "email": "anz@serverlessdays.io"
  },
  {
    "label": "Belfast",
    "slug": "belfast",
    "loc": { "lat": 54.6078, "lng": -5.9264 },
    "date": "23 May 2024",
    "website": "https://serverlessdaysbelfast.com/",
    "email": "belfast@serverlessdays.io"
  },
  {
    "label": "Auckland",
    "slug": "auckland",
    "loc": { "lat": -36.8481, "lng": 174.7705 },
    "date": "24 May 2024",
    "website": "https://anz.serverlessdays.io",
    "email": "anz@serverlessdays.io"
  },
  {
    "label": "Milano",
    "slug": "milano",
    "date": "13 June 2024",
    "loc": { "lat": 45.45585, "lng": 9.1781322 },
    "email": "milan@serverlessdays.io",
    "website": "https://milan.serverlessdays.io"
  },
  {
    "label": "Bengaluru",
    "slug": "bengaluru",
    "loc": { "lat": 12.95066349279342, "lng": 77.69951145260922 },
    "date": "31 August 2024",
    "website": "https://blr.serverlessdays.io/",
    "email": "blr@serverlessdays.io"
  },
  {
    "label": "Lima",
    "slug": "lima",
    "loc": { "lat": -12.0453, "lng": -77.0311 },
    "date": "20 September 2024",
    "website": "https://conf.ugperu.cloud/",
    "email": "lima@serverlessdays.io"
  },
  {
    "label": "São Paulo",
    "slug": "saopaulo",
    "date": "19 October 2024",
    "loc": { "lat": -23.596483534073293, "lng": -46.68680237631906 },
    "email": "saopaulo@serverlessdays.io",
    "website": "https://sdsp.io/"
  },
  {
    "label": "Rome",
    "slug": "rome",
    "loc": { "lat": 41.9028, "lng": 12.4964 },
    "email": "rome@serverlessdays.io",
    "website": "https://rome.serverlessdays.io",
    "date": "13 December 2024"
  },
  {
    "label": "Manchester",
    "slug": "manchester",
    "loc": { "lat": 53.470945508828045, "lng": -2.2959585153339175 },
    "date": "20 February 2025",
    "website": "https://serverlessdaysmanchester.com",
    "email": "info@serverlessdaysmanchester.com"
  },
  {
    "label": "Cardiff",
    "slug": "cardiff",
    "loc": { "lat": 51.4824, "lng": -3.1746 },
    "date": "10 October 2024",
    "website": "https://cardiff.serverlessdays.io",
    "email": "cardiff@serverlessdays.io"
  },
  {
    "label": "Milano",
    "slug": "milano",
    "date": "12 June 2025",
    "loc": { "lat": 45.4642, "lng": 9.19 },
    "email": "milan@serverlessdays.io",
    "website": "https://milan.serverlessdays.io"
  }
]
